{
  "students": [
    {
      "id": "1",
      "name": "John",
      "location": "india",
      "phone": "1234567890",
      "courses": [
        "Java",
        "Selenium"
      ]
    },
    {
      "id": "2",
      "name": "Kim",
      "location": "US",
      "phone": "98876543213",
      "courses": [
        "Python",
        "Appium"
      ]
    },
    {
      "id": "3",
      "name": "Smith",
      "location": "Canada",
      "phone": "165498765",
      "courses": [
        "C#",
        "RestAPI"
      ]
    },
    {
      "id": "4",
      "name": "Scott",
      "location": "France",
      "phone": "123456",
      "courses": [
        "C",
        "C++"
      ]
    },
    {
      "id": "7031",
      "name": "jimhm6eh30w@gmail.com",
      "location": "France",
      "phone": "8351618498",
      "courses": [
        "C",
        "C++"
      ]
    },
    {
      "id": "7627",
      "name": "jim3lvsuvx8@gmail.com",
      "location": "France",
      "phone": "+91-3894110572",
      "courses": [
        "C",
        "C++"
      ]
    },
    {
      "id": "9279",
      "name": "jim3lvsuvx8@gmail.com",
      "location": "France",
      "phone": "91-3894110572",
      "courses": [
        "C",
        "C++"
      ]
    },
    {
      "id": "3733",
      "name": "jimsecpv4iw@gmail.com",
      "location": "France",
      "phone": "91-3838361940",
      "courses": [
        "C",
        "C++"
      ]
    },
    {
      "id": "7921",
      "name": "jim8thkdzt4@gmail.com",
      "location": "France",
      "phone": "91-5003622215",
      "courses": [
        "C",
        "C++"
      ]
    }
  ]
}